time,des_dof_pos_left_ankle_pitch_joint,dof_pos_left_ankle_pitch_joint,dof_vel_left_ankle_pitch_joint,des_dof_pos_left_ankle_roll_joint,dof_pos_left_ankle_roll_joint,dof_vel_left_ankle_roll_joint,des_dof_pos_left_hip_pitch_joint,dof_pos_left_hip_pitch_joint,dof_vel_left_hip_pitch_joint,des_dof_pos_left_hip_roll_joint,dof_pos_left_hip_roll_joint,dof_vel_left_hip_roll_joint,des_dof_pos_left_hip_yaw_joint,dof_pos_left_hip_yaw_joint,dof_vel_left_hip_yaw_joint,des_dof_pos_left_knee_joint,dof_pos_left_knee_joint,dof_vel_left_knee_joint,des_dof_pos_waist_yaw_joint,dof_pos_waist_yaw_joint,dof_vel_waist_yaw_joint
0.0,-0.25935678879678187,-0.266468287,-0.040435791,0.0003859250923718713,-0.010032922,0.024673462,0.0007718501847437426,0.018524885,0.079652786,0.40064320818474375,0.340913057,-0.02822876,0.0006432091293206198,-0.005105734,-0.125888824,0.9007718655750894,0.879503489,0.043029785,0.0,0.007400274,-0.061798096
0.002,-0.25871909580541314,-0.266468287,-0.005465633186126619,0.0007685395113866699,-0.010032922,0.0036001405487587554,0.0015370790044115894,0.018524885,0.05349928982040623,0.4012809002129486,0.3412950678864473,0.07516127171089204,0.0012808985250983666,-0.005105734,-0.054424266232212845,0.9015370622981995,0.879503489,-0.008665230855446016,0.0,0.007400274,0.0020604527048343063
0.004,-0.2580751495843388,-0.266468287,0.07398614477440192,0.0011549173597113793,-0.010032922,-0.010570968004545454,0.002309833756091791,0.018524885,-0.019208697962679426,0.4019248473973267,0.341296434,0.03891867302727273,0.0019248619572983204,-0.005105734,0.05109175504688995,0.9023098328477643,0.879503489,-0.0704827648145933,0.0,0.007400274,-0.07246136090287081
0.006,-0.25742991940128757,-0.266468287,0.046693728649668656,0.0015420401072961374,-0.010032922,-0.004882070063574076,0.003084081203862661,0.018524885,0.021022302466696622,0.40257007659871247,0.341296434,0.11796922375783445,0.0025700678347639486,-0.005105734,0.1574912469984275,0.9030840851824035,0.879503489,-0.02852240838762215,0.0,0.007400274,0.046828440224531045
0.008,-0.25677356166961296,-0.266468287,-0.01625596561282487,0.0019358682584806497,-0.010032922,0.04842240139033277,0.0038717365169612995,0.018524885,-0.07920246231649258,0.40322643434113714,0.34092991180616955,-0.023046257102744716,0.003226447104634496,-0.005105734,-0.002270489946805926,0.9038717384094601,0.879503489,0.005570032530240465,0.0,0.007766796193830459,0.11981448014403692
0.01,-0.2561096451451153,-0.266468287,1.823606851948656e-07,0.002334205478250535,-0.010032922,-0.0575982732212506,0.00466841096921797,0.018524885,0.008803962781744126,0.4038903518421678,0.340913057,-0.009213764271322474,0.0038903431219396247,-0.005105734,-0.04366393542513177,0.9046684027784645,0.879503489,0.03929756001868711,0.0,0.007415015736583613,-0.08550990321502155
0.012,-0.2554427965142926,-0.2661110755778958,0.08748868767213303,0.0027343273555128513,-0.010032922,-0.006573119271855873,0.00546865569132837,0.018524885,0.0585763751990992,0.40455719948570745,0.340913057,-0.06099647666774454,0.004557212249339419,-0.005105734,-0.11325663907702968,0.9054686330951237,0.879503489,-0.028792219751356977,0.0,0.007400274,-0.007115804327866973
0.014,-0.2547628211084165,-0.2664646826330835,-0.010454238394359036,0.0031422991027104134,-0.010032922,-0.029453221549231356,0.0062845972396576326,0.018524885,-0.002138324131368323,0.40523717489158345,0.340913057,-0.037642255685046366,0.0052371641997146934,-0.005105734,-0.06535195364604243,0.9062846148801712,0.879503489,-0.07861778421839663,0.0,0.007400274,0.05516378894346335
0.016,-0.2540833932086426,-0.266468287,0.017309006423783396,0.0035499654516399333,-0.010032922,0.04120535863156012,0.007099931903279866,0.018524885,0.10258244971338264,0.40591660279135744,0.3412932788219227,0.05492854656762883,0.005916609747905195,-0.00472551217807729,0.11977530612702765,0.9070999285991141,0.879503489,-0.053616750840291036,0.0,0.007400274,-0.05175120931655534
0.018,-0.25339317187637106,-0.2660849550790865,0.05568999502728366,0.003964096740701002,-0.010032922,0.03373815134615384,0.007928194481402003,0.018524885,0.06989119577596153,0.4066068241421078,0.341296434,-0.01753880385252405,0.0066068282345016684,-0.005105687921033653,0.029765642934375003,0.9079281712390319,0.879503489,0.08085734966694713,0.0,0.007400274,0.03279612566129806
0.02,-0.2526994127744128,-0.266084909,0.09077306706148713,0.004380355541910099,-0.010032922,0.0317239820386082,0.008760712065219984,0.018524885,0.07659782787273595,0.407300584206987,0.341296434,0.09073815658150619,0.007300592890783355,-0.004722539734509056,-0.0754808221844614,0.9087607287862168,0.879503489,0.15591094875738798,0.0,0.007400274,-0.015998455346520495
0.022,-0.2519994336057305,-0.266084909,0.04503908938250986,0.004800333038598153,-0.010032699675133379,-0.004510251345975412,0.009600666058489226,0.018524885,0.070520519756553,0.40800056241297655,0.341296434,0.06945226650777081,0.008000554730996921,-0.004722357,0.0374521706078636,0.9096006679088325,0.879503489,-0.10646153247970308,0.0,0.007400274,-0.06333724812862446
0.024,-0.25129815791022264,-0.266084909,0.08808862468104847,0.005221108986832655,-0.00965972747889121,0.03174042664567386,0.010442216985635624,0.018524885,0.10911665454987243,0.4087018390897773,0.341296434,0.11101733594409649,0.008701847970074216,-0.004722357,0.1517598215598469,0.910442210961695,0.879503489,-0.028079832429598703,0.0,0.007400274,-0.08560424870900023
0.026,-0.2505829996733847,-0.266084909,-0.02250602904847397,0.005650198459988145,-0.009649545,0.03666440475942549,0.011300396903971548,0.018899314242369836,-0.0424347300897666,0.4094169975666864,0.341296434,-0.02942316359784558,0.009416996438648488,-0.004722357,-0.037367507482944345,0.9113003890800236,0.879503489,-0.020574983700179534,0.0,0.007400274,0.14031198913105924
0.028,-0.2498684177380753,-0.266084909,-0.025177002,0.0060789514890615655,-0.009649545,0.05121366193425202,0.012157901999402271,0.018908262,0.007067012698703717,0.4101315939427376,0.341296434,-0.07368990111970103,0.010131585155528991,-0.004722357,-0.02882054369613453,0.9121579052441123,0.879503489,-0.04147258004309237,0.0,0.007400274,-0.09227880123718327
0.03,-0.24914180174601286,-0.26571131559095884,0.04322220302734231,0.006514914768388479,-0.009649545,0.025367366972657675,0.013029830536776959,0.018908262,0.0070813464706525695,0.4108581804406094,0.341296434,0.007737591297484497,0.010858191293977625,-0.004722357,0.11897822435144004,0.9130298562701739,0.8798770824090412,0.09675993691833759,0.0,0.007400274,-0.11043152262231133
0.032,-0.24841204253644525,-0.265701532,0.12205147463307217,0.006952771463913824,-0.009277317972103514,0.09409659360197056,0.013905543915978456,0.018908262,-0.011944168508784426,0.4115879532858169,0.341296434,-0.00045229296011396053,0.011587953428007182,-0.0043501299721035135,0.2798760512926164,0.9139055498804309,0.879886866,0.06069866306244064,0.0,0.007400274,0.20790017650949674
0.034,-0.24767211041688528,-0.265701532,0.0407980657523718,0.007396729587646077,-0.009266168,0.0528437665761979,0.014793459191032674,0.018908262,-0.09428454255338058,0.4123278710553303,0.341296434,0.008190031822505104,0.012327882646076795,-0.004713885597574156,0.013003038977903225,0.9147934624586215,0.879886866,0.023100527554221206,0.0,0.007775179597574156,0.026441108292061977
0.036,-0.24692859666201716,-0.2653255420572314,0.04637374721819483,0.00784284016416309,-0.009266168,0.0764952787525933,0.01568568132832618,0.01928425292106832,0.11644146792285683,0.41307141387124463,0.341296434,0.04421874109073566,0.01307140027360515,-0.00434729937689281,0.2561622678484559,0.9156857010386266,0.879886866,0.13931262738213904,0.0,0.00740859337689281,-0.0465420360941934
0.038,-0.24617906120810487,-0.265317202,0.016655311934256053,0.008292559198331348,-0.009266168,0.029705377377162626,0.01658511938045292,0.019292593,0.06198451383391004,0.41382092126197856,0.34167185161591695,0.05248442627681661,0.01382093200262217,-0.00433898,0.036064148359861575,0.9165851215263409,0.879886866,0.11023161091695502,0.0,0.007400274,-0.13772090699307957
0.04,-0.24542361896566112,-0.264941956685653,0.15193523497354622,0.008745832017407893,-0.009266168,0.05038760529218303,0.017491664018838678,0.019292593,0.015327155684938032,0.41457639205031593,0.341679811,0.015304973095328883,0.014576387018361751,-0.00433898,0.013358350095090562,0.9174916746833194,0.880262111314347,0.09402746722140133,0.0,0.007400274,0.0022658272681125025
0.042,-0.24466162744899905,-0.264933825,-0.015585686300751883,0.00920302667874166,-0.00889047775689223,0.04789688024060151,0.018406052373689228,0.01966828324310777,0.16985475418796994,0.4153383842917064,0.341679811,0.026458128498746868,0.0153383774699714,-0.00433898,0.05932380104010025,0.9184060425357483,0.880270243,-0.09471875653884713,0.0,0.007400274,-0.0783953754511278
0.044,-0.24389398282919847,-0.264933825,0.046595229354593065,0.009663610349713742,-0.008882791,0.06359679541123275,0.019327220699427484,0.01967597,0.03751836074012377,0.4161060134227099,0.341679811,-0.04642818881675394,0.016106017265267177,-0.00433898,0.09609151646216087,0.9193272205262405,0.880270243,0.08410847236078059,0.0,0.007400274,-0.06667640496811043
0.046,-0.24311935924493444,-0.2645583186743464,0.07646161554458637,0.010128387436710368,-0.008506351241733316,0.025479895467351084,0.020256774857091774,0.02005147534618599,0.17078959442175004,0.4168806527387366,0.341679811,0.05505869095177272,0.0168806466897497,-0.003962540241733318,0.06401323437591024,0.9202567642816448,0.880645748346186,0.13183853683132388,0.0,0.007400274,-0.14708511120257847
0.048,-0.24233909116455998,-0.2641747512565295,0.12191608686511629,0.010596547294777008,-0.00849846,0.04539841369874777,0.021193093605771523,0.020059347,0.17245068173452593,0.41766091983544,0.3420555077234347,0.037781471231127,0.017660910851657524,-0.003954649,0.1141644031924866,0.9211931088003816,0.88065362,0.09746413323864042,0.0,0.007775969743470483,0.0785133535427549
0.05,-0.2415523874163489,-0.26416707,0.14676492589292955,0.01106856918636797,-0.00849846,0.005354022564444977,0.022137138356291705,0.020059347,0.08329466465100752,0.4184476235836511,0.342063189,0.04486151325515679,0.018447615616539563,-0.003954649,0.1092218737759628,0.9221371652905148,0.8810302982902111,0.1451966995051866,0.0,0.007407907713962084,0.06820544046977466
0.052,-0.24075997546901073,-0.263790435761621,0.1397745047487485,0.011544018508939213,-0.008122759678903456,0.09039341907914185,0.023088036050059595,0.020435047321096543,0.07191376129201431,0.41924003554707984,0.342439823238379,0.09884512574493445,0.01924002954707986,-0.003954649,-0.00903032979356376,0.9230880588569725,0.8814136513210965,0.19164085467246722,0.0,0.007400274,-0.13845697027127535
0.054,-0.23996134346505824,-0.26340753355399454,0.17098227989105846,0.012023197079866889,-0.008115083,0.09806153027658054,0.024046395159733776,0.020442724,0.10815618217454459,0.42003866853494176,0.342447519,0.0626110865926896,0.02003866247171381,-0.003579442553994523,0.07218402803571854,0.924046405875208,0.881421328,0.18659442914716037,0.0,0.007400274,-0.05456156112727706
0.056,-0.2391586816283566,-0.26303140258615854,0.21706517325555294,0.012504791635875402,-0.007747123545943418,0.08949108548304886,0.025009584258861437,0.020811599088847322,0.07907354490343699,0.42084133017830294,0.3428154784540566,0.06765615750923544,0.020841320371643393,-0.003571272,0.01103095929717092,0.9250095770139636,0.8817892874540566,0.11968240207622165,0.0,0.007400274,-0.0321396052779986
0.058,-0.23834654057746477,-0.263015985,0.218967438,0.012992077281690141,-0.007361667851829633,0.07746209854829034,0.025984154563380282,0.02119709314817037,0.08548023417756449,0.4216534564084507,0.342830896,0.13565358472825434,0.02165346146478873,-0.003201233851829634,0.059939947112177566,0.9259841291690141,0.8821747431481703,0.16106789996820636,0.0,0.007400274,-0.034226095092381524
0.06,-0.23752826681718636,-0.26264153234700277,0.15041091862477385,0.013483043406093787,-0.007348329,0.0976980036186226,0.02696608682742204,0.021584884652997224,0.2425439430642866,0.4224717291828136,0.342830896,0.023334478106139186,0.022471738015234468,-0.003187895,-0.002287345769870955,0.9269661036598429,0.8825634654688217,0.1453724326499819,0.0,0.007400274,0.0014363429126764
0.062,-0.23670600947079898,-0.262632608,0.0720668582561925,0.013976391106532903,-0.00697678183368719,0.1478466778995046,0.027952783199331182,0.021593809,0.13121913348761502,0.42329398652920097,0.342830896,0.09583070228520879,0.023293984529201003,-0.0028172701012031142,0.07289176464048124,0.9279527892268004,0.882572412,0.1437803037091295,0.0,0.007400274,0.07456990754140128
0.064,-0.2358749325175449,-0.2622566723200193,0.1246556272515989,0.014475036548233615,-0.006963998,0.11999895464221069,0.02895007309646723,0.021968812494871485,0.20129262879232535,0.4241250634824551,0.3432058994948715,0.029761819931096903,0.02412506155977162,-0.002804518,0.1829984465908049,0.9289500813438801,0.8833224199679016,0.3509095819285628,0.0,0.007400274,0.13676267707505732
0.066,-0.23504091934908136,-0.26151167724719104,0.18745546706179778,0.014975448142448103,-0.006595697623595505,0.10966423073595506,0.029950896284896205,0.022346402859550564,0.13140930193258427,0.4249590764504892,0.34358257433707867,0.06634144270224719,0.024959079584108805,-0.002435301140449438,0.1590123975561798,0.9299509199909329,0.883339167,0.14620525946067414,0.0,0.007400274,0.05013984544382023
0.068,-0.23419827398578594,-0.261481524,0.17507769876357906,0.015481031865384614,-0.006580621,0.062071200163069835,0.030962063730769228,0.022361517,0.057564381856086325,0.4258017074548495,0.343597651,0.11557533682747333,0.02580172012792642,-0.002420187,0.023846202854025222,0.9309620657876254,0.8837134801645248,0.18292622380383122,0.0,0.007400274,0.21191126768974297
0.07,-0.23334861731350579,-0.2611060289666467,0.2464531410243873,0.015990829827989037,-0.006204192562104005,0.09446501389970113,0.03198165965597807,0.023112505107830243,0.19633427946156606,0.4266513946704017,0.34397407845845784,0.22134875144937238,0.02665138470258672,-0.0020446929460848774,0.11026960503048416,0.931981665237573,0.8840989714584578,0.18880718404722055,0.0,0.007400274,-0.07402183085941422
0.072,-0.23249445301331273,-0.26034626895363533,0.27186978627938024,0.01650332933745394,-0.005820818151489869,0.12081323884672228,0.03300665867490788,0.023128271,0.1825442772387366,0.42750555798668727,0.343981981,0.19814000901823597,0.02750554987436111,-0.0016613381514898689,0.1629659662990465,0.933006638787234,0.8844823468278903,0.17037500217938023,0.0,0.007400274,-0.06217565555077473
0.074,-0.23163665436591183,-0.2599628141540796,0.24603589173958212,0.017018005253873657,-0.005812913,0.1194217465954243,0.03403601049463647,0.023495895845920392,0.24072102753916189,0.4283633566340882,0.3443496058459204,0.16395190652340375,0.028363341752085817,-0.0012858081540796078,0.2649954764297887,0.9340359973504171,0.8848578768459204,0.24314583401260653,0.0,0.007400274,-0.0413135231536127
0.076,-0.2307703346813527,-0.25957676888787407,0.19332438306273286,0.01753780252369612,-0.005071407267996634,0.1845141040895325,0.0350756040733508,0.024253153732003364,0.22554331336534073,0.4292296763316266,0.34473565014625646,0.04018084369787285,0.02922967022779233,-0.001270056,0.1617340502253335,0.9350755805016671,0.8852439211462565,0.13603859753118616,0.0,0.007029061380122581,-0.09496638687068862
0.078,-0.22989868247732698,-0.2591947836387968,0.16953232244587874,0.01806078870405728,-0.005045205,0.12398132318048317,0.036121578384248204,0.024647341621151113,0.13352426660409758,0.4301013291527446,0.344748735,0.054898209984130746,0.030101315474940334,-0.0009011546789436287,0.2311632654066793,0.9361215869904534,0.8856249916211512,0.2698191007039318,0.0,0.007015944,-0.15401713983230697
0.08,-0.22901910456272487,-0.25880536279008604,0.2802526230658102,0.018588534667546175,-0.00467121379008605,0.143952642660526,0.03717706836099784,0.02503672420991395,0.2987996328824385,0.43098087645022787,0.3451227271854321,0.03485526440855654,0.03098088945022787,-0.0005117337900860502,0.21189838879663073,0.9371770446459583,0.8860153048541995,0.18685974228396557,0.0,0.007015944,-0.1906424201477397
0.082,-0.2281289749377979,-0.25802867568436055,0.25707092217955113,0.01912261277669209,-0.00427790332490203,0.157805585240114,0.038245226534437564,0.02504665767509797,0.16631140116708232,0.4318710070432555,0.34551698931563946,0.15333507548094052,0.03187102004325548,-0.00011842468436052725,0.16116016467438546,0.9382452251217827,0.8867920143156395,0.27966909394869965,0.0,0.007015944,-0.028196144133950836
0.084,-0.22723834818850602,-0.25764675552606575,0.22666931170074814,0.01965698577989746,-0.003895032791829949,0.2932447599331433,0.0393139715411947,0.025429528208170054,0.15840698272152953,0.43276163310909743,0.34589890947393426,0.13965435086509914,0.03276164588589484,0.00026349547393421206,0.28428668820935754,0.939314000057589,0.8871739344739342,0.15319649408550054,0.0,0.007015944,-0.005394935776748603
0.086,-0.22634121414890318,-0.25726215692555476,0.24183013507229778,0.020195271174296613,-0.0031286466676210926,0.30060544350059654,0.040390541348593226,0.025813177666189454,0.18580808333047005,0.4336587828323796,0.34628255666618946,0.28281478427893103,0.03365878398211731,0.0006480950727749942,0.26934692792770226,0.9403905441988555,0.8875585330744453,0.1315683492994512,0.0,0.007015944,-0.002293915185874493
0.088,-0.22543798042203148,-0.25687891462166346,0.20226313683353195,0.02073721463376252,-0.0023612131758817922,0.3177028976204719,0.04147442828636147,0.02619641837833651,0.19072878283317446,0.43456201557796853,0.3466657973783365,0.1825503521191611,0.03456202437076777,0.001031337378336511,0.25104798738548617,0.9414744234935623,0.8879417763763108,0.39406510533817923,0.0,0.006633342623689228,0.07080499946008104
0.09,-0.22452877697048673,-0.2561128457494933,0.365140342308692,0.021282730941806497,-0.0019770123737927743,0.27753122484320975,0.042565461883612994,0.026963438432454988,0.14382936062334567,0.43547121931155536,0.3470501718062478,0.14427214452664838,0.03547121725514697,0.0014147596262072256,0.24644199082365564,0.9425654675451625,0.8887078442524144,0.20818482482103254,0.0,0.006632566,-0.1651104728618099
0.092,-0.22361496806337272,-0.25572851624330756,0.15112201438036882,0.021831022703544575,-0.0012124462299821534,0.37276273373753716,0.04366204540708915,0.026964903,0.07685664221820346,0.4363850429538131,0.3474328223850089,0.1730806921302796,0.036385037867883996,0.0021802761378941103,0.3163564549530042,0.943662033716434,0.8890921737566925,0.3178834531624033,0.0,0.006632566,0.010770185447233793
0.094,-0.22269250218281492,-0.2553444542910198,0.18075851147408648,0.02238449880955786,-0.00044337751874850726,0.3681018053330547,0.044768997637468715,0.027730100417960354,0.26908247984069733,0.4373075092665951,0.3478168807089802,0.1716682896764987,0.0373074996703611,0.002565797708980177,0.36992103033066637,0.9447690035640567,0.8894762367069501,0.20257078527107714,0.0,0.006249967291019823,0.08606037186171482
0.096,-0.22176542967944912,-0.25457938615658493,0.3861556395959752,0.022940738092722308,-5.967457668492498e-05,0.3118764165837104,0.045881477185444615,0.028113801423315075,0.3199722390113122,0.4382345528404369,0.3481998034233151,0.2903010952548226,0.03823456451774902,0.0033318157794713027,0.2361838145331031,0.9458814789882465,0.8902413038466301,0.2802091821247916,0.0,0.006249189,0.026894206372588714
0.098,-0.2208356916,-0.2542056447222736,0.27036409075970425,0.02349858641497326,0.0006822692925138632,0.3058578501411737,0.04699717380213904,0.028485389646256933,0.1892355594625693,0.43916431941390377,0.34894266889001846,0.23466974714648797,0.039164313302673795,0.003705561243761553,0.19890079035466726,0.9469971645518717,0.8906150452777264,0.2710264212798059,0.0,0.006249189,0.0443915124711183
0.1,-0.21989906723322147,-0.25344916660182076,0.2559135205618112,0.02406055924496644,0.001080949172256828,0.30077042734355536,0.048121117511505274,0.02924276037134643,0.3296232333315764,0.4401009447559923,0.3493404561990896,0.12469666572280785,0.04010093076677852,0.004462039398179205,0.31596127979228555,0.9481210910292425,0.8913715243677527,0.3458527344578342,0.0,0.005877476800910397,0.040575072240776236
0.102,-0.2189484172180908,-0.2526751994302885,0.3063148348707933,0.024630947904540578,0.001842347782451923,0.2612297352590144,0.0492618967929925,0.029640971391225963,0.20287972763701922,0.44105159378190917,0.34972697339122594,0.2958692658299279,0.04105158083017519,0.005235073782451923,0.3510063982469952,0.9492619177286379,0.891769706391226,0.2539181764266827,0.0,0.005865812,-0.026701964094350952
0.104,-0.2179969474620706,-0.2519078367986641,0.33733079590744275,0.025201831894203244,0.0022345431006679387,0.17459911599379774,0.05040366380427004,0.03040072171946565,0.24647926708874046,0.4420030635379294,0.3501106450791985,0.23563489860543896,0.04200305349033874,0.00562820261879771,0.25914551791269086,0.9504036800904103,0.8925294557409351,0.2684967681812977,0.0,0.005865812,-0.07152921366793893
0.106,-0.21703876709450604,-0.2511396933509483,0.3603963718487415,0.025776738330234777,0.0026190818668734342,0.22892328019849695,0.051553477627815515,0.03079257778217822,0.4100531934537755,0.4429612436605887,0.3508705566699272,0.2969752894015269,0.04296123090549398,0.006387201564356435,0.3168754226036026,0.9515534503788583,0.8932976196490516,0.34834769115996655,0.0,0.005865812,-0.03961069141071215
0.108,-0.21607521763093251,-0.25037290798748363,0.4490267476271308,0.026354867305151443,0.0030024845062581952,0.21828875215198473,0.05270973362640115,0.031175960506258198,0.3890165175632376,0.4439247786105414,0.3512619625062582,0.2878548047825724,0.043924780481755306,0.007154901111455478,0.34056028760579327,0.9527097509502742,0.8936899596051973,0.40382807421635475,0.0,0.0054894993739420675,-0.10315397943378235
0.11,-0.21510527421025152,-0.24960656362430086,0.4210773001099607,0.026936838477100142,0.003759898946566702,0.25445608578781387,0.053873676954200284,0.031934307375699154,0.333611807093181,0.44489473678974845,0.35164466847328335,0.18770970958419614,0.04489473078974846,0.007920332946566704,0.4379810033704629,0.9538736529542002,0.89482210241985,0.3148947949820302,0.0,0.0051067725493276215,-0.03442797147423539
0.112,-0.21413389571691793,-0.2488532396469211,0.37498075967185673,0.02751966574874372,0.004146133409271833,0.29976411194649966,0.05503933148576215,0.0326876313530789,0.30246231499098575,0.44586611528308207,0.35239021804565673,0.23373016460782017,0.0458661092479062,0.008305652676539451,0.3596665945098338,0.9550393081072027,0.8955849890456568,0.41181839570381645,0.0,0.005098104,-0.084067674697963
0.114,-0.21314846642375104,-0.2480745651071645,0.2049000884964238,0.028110921548825562,0.004909451892835495,0.36743818341520185,0.05622184212841302,0.03346723544041702,0.32740875266517155,0.4468515443609157,0.3527949874587223,0.20003222209601162,0.04685153557624896,0.00906986244041702,0.3801135163776216,0.9562218709899846,0.8963637009174446,0.45465871312910655,0.0,0.005098104,-0.043050632184992124
0.116,-0.21216049888372093,-0.24730647914117088,0.32276540929617265,0.028703702248062013,0.006051682240610468,0.4683676770759509,0.057407405465116274,0.03386027140586622,0.288159187838202,0.44783949810077517,0.35317856540586623,0.40016705198986524,0.04783950305426357,0.009837041811732443,0.37177592368117324,0.9574074255426357,0.8975059312406105,0.490778498121736,0.0,0.005098104,-0.015157361343746269
0.118,-0.21116617772690427,-0.2465388941315036,0.3913750876192124,0.02930029356705209,0.0064539534342482096,0.3448764320912888,0.05860058616605078,0.03499407933114558,0.389142454175179,0.448833818289069,0.3539378258968974,0.23965301769319808,0.048833820336988916,0.010605535896897375,0.2522964205603819,0.9586006105590654,0.8986582293311456,0.5131124161828162,0.0,0.00472355656575179,-0.12332332949140812
0.12,-0.21016645201776346,-0.24577110181054013,0.42124945244795514,0.029900129182999523,0.007587516703946584,0.39800067745224754,0.059800259365999045,0.03576979102897341,0.47265566302170026,0.4498335449822365,0.35433010751448674,0.2849533773461309,0.04983354998223653,0.011372418028973411,0.38814687147096694,0.9598002461915832,0.8998085415434601,0.5404555267196852,0.0,0.004714727,0.03662819280279003
0.122,-0.20916050150059592,-0.24462825046511627,0.4263881488472272,0.03050369913158522,0.0083634306163387,0.5361604282178891,0.06100739924719905,0.03653783922671437,0.5318359891252236,0.4508394957230036,0.35508937922671435,0.3562144673853309,0.05083950048343266,0.01214046622671437,0.29890847389218844,0.9610073756624553,0.9005853662267144,0.649082859037567,0.0,0.0043399456918306505,0.019552450023852117
0.124,-0.20814880084005247,-0.2434787555178699,0.6009137945113175,0.031110721442032443,0.009505240547176556,0.42811552257386226,0.06222144289992843,0.037678738482130096,0.40732476075756485,0.4518512101758111,0.35585571632142005,0.33546049415165596,0.05185120017581107,0.012906803321420062,0.39071107179104125,0.9622214452013358,0.9017271975471766,0.5680753118895641,0.0,0.00433135,-0.15684404587097928
0.126,-0.20713061225599336,-0.24270173034383202,0.47970430909711287,0.03172163128542606,0.010657110648293965,0.5111602420721785,0.06344326355459293,0.03845576365616798,0.47776387707874013,0.4528693997277475,0.3562481699698163,0.3722301590682415,0.05286938972774745,0.014049837625984253,0.4794479927769029,0.9634432846684073,0.9028781359094488,0.6228004161312336,0.0,0.003955594291338582,0.02400747708267717
0.128,-0.20611130674390826,-0.24157920560273974,0.5120123567608008,0.032333216893932155,0.011419112801896733,0.4463844662848612,0.06466643378786431,0.039577372262381456,0.4536492308071654,0.453888703909699,0.35699395997646644,0.2631825523417633,0.05388869417247969,0.014811838841587637,0.500471524345627,0.9646664613459149,0.9040091923972603,0.539690010936073,0.0,0.00394702,-0.0963230485486477
0.13,-0.2050795713792857,-0.240786076767256,0.5000788713729717,0.032952253295,0.01257163782005328,0.405339556076774,0.06590450657607143,0.04037139320368128,0.5864552701869703,0.45492041102464287,0.35777187223274404,0.3136757741053524,0.05492042277392857,0.01559064320368128,0.4893592859953984,0.9659044979939286,0.9051769718200532,0.6385395887461855,0.0,0.0035732993836279973,-0.1698971606413175
0.132,-0.20404538464077437,-0.23929059098341762,0.581936265298483,0.03357277400800669,0.013338258627896038,0.5022015593535223,0.06714554702856118,0.04149808920263437,0.4219810653658709,0.4559546261835564,0.35852973038868635,0.4354705879368458,0.05595462037177342,0.016347607627896037,0.5741909444474891,0.9671455681163958,0.9063124064418441,0.6012565389837705,0.0,0.003563643,-0.016062429654945337
0.134,-0.20300129491022442,-0.23848518460884272,0.6431711486943706,0.034199227226932666,0.014488990654747524,0.5747555779792219,0.06839845445386533,0.04266249108673593,0.6139903003771443,0.4569987022992519,0.3593060103911573,0.3881856562744624,0.05699871102992519,0.017498339654747525,0.4363066934373037,0.9683984822294264,0.9078512603503262,0.6389314951273255,0.0,0.0031900833300314083,-0.133326418898043
0.136,-0.20195781726718562,-0.2373484831976261,0.6121143819909792,0.03482531203077844,0.015635533831928783,0.5755836581448072,0.06965062407269461,0.04343696446979228,0.5125930622505638,0.4580421937439521,0.3600706654697923,0.4193951297609495,0.05804218477736527,0.018272837469792285,0.40001710123905043,0.9696506368276647,0.9090076228023739,0.6417400883596439,0.0,0.002808218667418398,-0.11583533045756678
0.138,-0.20089954088157425,-0.23619071247229553,0.5113159626094986,0.0354602770175313,0.016793304527704483,0.5106649877994723,0.07092055501932021,0.04458340452770449,0.6106436834881267,0.4591004708822898,0.36084190112137204,0.3712252811134565,0.05910046499248658,0.019044073121372032,0.36326977577044856,0.970920546601789,0.9101653935277044,0.6054468830474934,0.0,0.002796888,-0.03327342050923483
0.14,-0.19983970346049337,-0.23503677539096668,0.6343396807297168,0.03609617623715886,0.01757108591181742,0.4617749036344844,0.07219235249052557,0.045736407899629586,0.5097608024174931,0.4601602935395066,0.36161148864249015,0.3416543735418807,0.06016029466916935,0.02018888360903334,0.4833712163270403,0.972192380247408,0.9116945535755766,0.6977543478924604,0.0,0.002796888,-0.13881085416154856
0.142,-0.1987749081805869,-0.23388804302857485,0.6161805629149899,0.03673506026636569,0.018712575526372188,0.525718358028932,0.07347012153273139,0.046886052503869506,0.5218337619259436,0.4612250888194131,0.3623773169809501,0.43650020191689487,0.06122509780361174,0.020962865980950113,0.5053901142753898,0.9734701338374717,0.9128523725038695,0.7409460843755209,0.0,0.002421206454577926,-0.1262321876516252
0.144,-0.19770731200166947,-0.2327436767529328,0.6690794019613698,0.03737561633388981,0.01911099742173243,0.43229385929020026,0.07475123366777962,0.04803044024706719,0.6283240336590828,0.4622926847979966,0.36314053682533476,0.41645784476656,0.062292692910684476,0.021726085825334755,0.4139112785155824,0.9747512033063439,0.9143683526869297,0.6499667065235217,0.0,0.002040038578267567,-0.2578459787102737
0.146,-0.19663004029898506,-0.23160387779497166,0.6295395149333097,0.038021974248716416,0.019859377013101982,0.4014354301757554,0.07604394947188059,0.04916932157684136,0.5668392574938621,0.4633699410842985,0.3638998000512276,0.39526177744759206,0.06336995770101493,0.02285502624315392,0.5624054935272663,0.976043969293015,0.9155189822050283,0.6549194288359301,0.0,0.002029181,-0.27343367773878663
0.148,-0.19554536558096489,-0.23043716558689079,0.6264221946005564,0.03867278118784333,0.02063747015987423,0.3904983933293022,0.07734556137568666,0.05033599741310921,0.6416773598938204,0.4644546449855505,0.3650518594131092,0.5269166447714355,0.06445463230343922,0.023646843531019472,0.4582544932693191,0.9773455671589444,0.9170596596908938,0.6451006882543233,0.0,0.002029181,-0.017887236534768425
0.15,-0.19445470345011323,-0.2292864734799714,0.584685297844063,0.03932717412993206,0.021404606989270387,0.3489686798965188,0.0786543472598641,0.05148762054577968,0.6257556679704339,0.4655452775660985,0.3658284070133524,0.3858046811835956,0.0655452866795804,0.02478903056986171,0.4584607484969003,0.9786543382598641,0.9182206945457797,0.640676391499523,0.0,0.0016550355174058179,-0.045694143262517875
0.152,-0.19336024568248478,-0.22776162392228844,0.6119430866870084,0.039983848787289854,0.022172112465077474,0.4511259971940405,0.07996769660677239,0.05263843775923719,0.6294832895864124,0.46663973630141886,0.3665959134407628,0.49389862095327774,0.06663975218874449,0.025564862612634087,0.5314843468731824,0.9799676879608918,0.9197455670777116,0.6953623814619786,0.0,0.0012717476815256258,-0.19542079652681765
0.154,-0.1922595628318236,-0.22659947747600284,0.626071493061724,0.04064425843480334,0.023315615523997135,0.4910935895457259,0.08128851786960668,0.05379033027829513,0.6820733271941262,0.4677404186580453,0.3673638495188634,0.39528750758870584,0.06774042741311086,0.026333706787368672,0.45278377568612704,0.9812885310002384,0.9212823482834288,0.6907634169851957,0.0,0.0008868599720630373,-0.1693093338803725
0.156,-0.1911535831279361,-0.22582509395202952,0.6457394765690989,0.041307854236318116,0.02408999904797048,0.4890183712618736,0.08261570945653988,0.054939690406142126,0.6368467316244495,0.46884642740527005,0.36813039988215684,0.44949684538197837,0.06884642175938953,0.027473416547672897,0.4330389307805023,0.9826157304565398,0.9224404724061421,0.6566771376830138,0.0,0.000878096,-0.14032573530901082
0.158,-0.19004124604028605,-0.22467921599964108,0.5565597164480737,0.04197525124767581,0.024860435418042594,0.43864703230031105,0.08395050249535162,0.0557194594180426,0.4778912533455372,0.46995873643325387,0.3688999251646327,0.3941216308013879,0.0699587520740167,0.028628604000358937,0.4639744970790859,0.9839505227605483,0.923594748746949,0.6331190041371142,0.0,0.0005026544176836564,-0.2262908530378081
0.16,-0.18892358611803825,-0.22352777412304756,0.5516750753685467,0.042645851477496735,0.02600300830738047,0.41292024725992604,0.08529170297114357,0.05686296587695243,0.46379363791045664,0.4710764248981119,0.37004341187695244,0.4841023093816621,0.07107641876891106,0.029780044897341124,0.4661325243157267,0.9852916794556467,0.9247461708769523,0.5836105333789198,0.0,0.000494719,-0.07266307874341243
0.162,-0.18780427900906596,-0.22239882750525947,0.5354932166746144,0.04331743266336634,0.026395560338709677,0.31471825600070125,0.0866348663144459,0.057991911534361854,0.5409438997776999,0.47219573280663246,0.37080325519565216,0.35850472021458624,0.0721957190892282,0.030539889156030856,0.549692664951613,0.9866348724127401,0.9258751174947405,0.5351086121949509,0.0,0.0001265309417952314,-0.2643322224512623
0.164,-0.18667401445204498,-0.22160505397575758,0.4588949031878788,0.04399559684274097,0.02753303801212121,0.3912703544,0.08799119368548194,0.05916069890909091,0.5143582890727273,0.47332598273044724,0.37158273189696966,0.3562225569878788,0.07332599144367376,0.03169344890909091,0.4846498891818182,0.987991207776728,0.9266688910242424,0.4527497722060606,0.0,0.000111341,-0.08923626493939396
0.166,-0.1855353276066746,-0.22046282699427755,0.44360289382164997,0.04467880242312276,0.027936086194563663,0.2979111118006676,0.08935760483015495,0.0599370768111588,0.46476298453838816,0.4744646831519666,0.3723498148350024,0.47248098887601336,0.07446467039332538,0.03284499202956604,0.6646705971950405,0.9893576259588795,0.9278111180057225,0.5568044073400095,0.0,-0.0002628949175011922,0.0970322911583214
0.168,-0.18439448524040067,-0.21968601371201815,0.39406326214965987,0.045363307161221084,0.02831993364399093,0.27294421051247164,0.09072661333842118,0.06070565767800454,0.3657399093605442,0.4756055107755784,0.3731183966553288,0.39926370588208615,0.07560551288743143,0.03362180626530612,0.5244516040725624,0.9907266417312187,0.9289635472993197,0.559991347818594,0.0,-0.000272036,-0.1535414002040816
0.17,-0.18324738301262958,-0.21854374667640047,0.3884480218065554,0.046051574972834505,0.028703276347199047,0.2182905226750894,0.09210314996199213,0.06184701501883194,0.505428657525745,0.47675261421589415,0.3738851036943981,0.36021680716889154,0.0767526229710473,0.03476407234636472,0.4867990104713945,0.992103141076254,0.929738947694398,0.5850582370973779,0.0,-0.000272036,-0.01332251930238379
0.172,-0.18209560798043892,-0.21814325171069557,0.3078955904935684,0.046742638767652674,0.0294605855549071,0.18753325620783706,0.09348527853530535,0.0629969992801334,0.5456805367056932,0.4779044027991412,0.37502636125643163,0.3876565662065269,0.07790439703530534,0.035914079256431634,0.4666337932627442,0.9934852765353053,0.9308802052564317,0.4438193322883516,0.0,-0.0006472567015245355,-0.033753618694854694
0.174,-0.18093676466305125,-0.21700944701503222,0.31041531560486757,0.047437941943384986,0.029854285449534716,0.12876048091123837,0.094875884870441,0.06377440470579815,0.4231268530229062,0.47906323232061976,0.3758037667057981,0.4584173699012169,0.07906324120631705,0.03669055353543307,0.42441768561918397,0.9948758830010727,0.9320322059849677,0.5441447857795276,0.0,-0.000656366,-0.09098749306370796
0.176,-0.17977308666868685,-0.21623244312695566,0.33442105273701184,0.0481361452989899,0.030238407436522154,0.21021599450698675,0.0962722905979798,0.06491794628854652,0.5636417892940403,0.48022690957373737,0.37657198887304427,0.4077769441832079,0.08022691144444444,0.03745968684103666,0.36816450613877943,0.9962722961131313,0.9331845283095664,0.5286517936919861,0.0,-0.0010316844365221545,-0.15505921939746806
0.178,-0.17860724181179138,-0.2158463663033642,0.29233840617946316,0.04883565826089032,0.03061550736959325,0.28663968772629234,0.09767131650877194,0.06568112210362208,0.530292349067284,0.4813927690060867,0.3773271070662291,0.36993014479592073,0.08139276309714763,0.03858294907138671,0.4345471600257883,0.9976712927039026,0.9343167464358223,0.6222733289064588,0.0,-0.001039743,-0.11380690279650686
0.18,-0.17743063885858945,-0.21508450710678906,0.3516728197436579,0.049541616059328095,0.03137826092220344,0.2964117647929451,0.09908323114700977,0.06683106181468954,0.599090929592172,0.4825693583398856,0.3784770458398164,0.4919729751326407,0.08256935914141053,0.03974811689393573,0.4014710144513168,0.9990832230968549,0.9354819508688089,0.6485356471275671,0.0,-0.001039743,-0.0005867208915196903
0.182,-0.17625056337646217,-0.21432521608366722,0.3297110752304973,0.05024965958761041,0.031767103658496346,0.26552440526608534,0.10049932017522081,0.06796953761088853,0.6109024755786,0.4837494472323943,0.37924596991633275,0.4422044955366486,0.08374943462353783,0.04051706491633278,0.4770353871967947,1.0004993776761757,0.9366195319754891,0.5173278297570115,0.0,-0.001039743,-0.08007915315720009
0.184,-0.17506246012056823,-0.21392318698755738,0.17685738307538054,0.05096252253061955,0.032155274012442614,0.2014274945343078,0.10192504604643667,0.06913501456450834,0.5397579002683015,0.4849375218794318,0.3803966910373278,0.4789619948737618,0.08493753787943177,0.04166778701377144,0.5022455654484176,1.0019250670464368,0.9377849745645084,0.6339782974034791,0.0,-0.0014140890124426189,-0.17703000925803336
0.186,-0.17386859837592372,-0.21316558191731205,0.34003746594554984,0.05167883978092968,0.032538593017633746,0.21367403753175265,0.10335767956185936,0.07028592250446801,0.6953485717519361,0.48613138385101307,0.38117328946312407,0.5022420447850591,0.08613139962407629,0.04244438448683427,0.37466680789979745,1.0033576994758044,0.938935882504468,0.5236923331919456,0.0,-0.00142312,0.056081731920648165
0.188,-0.17267111542908137,-0.21239746035476562,0.4141498786605034,0.052397329993574486,0.032923118806990344,0.20220304105260645,0.10479466000309377,0.07181216636800668,0.7629654223440295,0.48732888082603526,0.38231593850662055,0.35819601242586185,0.08732888269847693,0.0432115976996302,0.39838925869485864,1.004794613987149,0.9400876215066205,0.6270729143706311,0.0,-0.00142312,-0.08129632686472624
0.19,-0.17146981770338984,-0.2116386220540158,0.3317440355477061,0.05311811174671759,0.0333025489729921,0.23404386821736053,0.10623622447923131,0.0729592849189763,0.7166942178186106,0.4885301940693483,0.3830836489459842,0.3945931466694186,0.08853018818297922,0.04397133502571058,0.40197450384325983,1.0062361786439484,0.9412258679189763,0.5564367212138224,0.0,-0.00142312,-0.10533306393631325
0.192,-0.17025937863632026,-0.21086236627192664,0.49741047212148637,0.053844372950483235,0.034065031020147185,0.28340257604692964,0.10768874590096647,0.07449802274822052,0.6941527746386777,0.48974061714819234,0.38423472523814695,0.47653165984775003,0.08974061936367975,0.04512151150790204,0.37671572668657255,1.0076887802237202,0.9423897852381469,0.6219306760468091,0.0,-0.0017979414877548558,-0.106048584
0.194,-0.16904374624222643,-0.21009431283848634,0.2920437649284947,0.05457374817173036,0.03445853787895428,0.24308008905252476,0.10914749634346071,0.07565958304046794,0.6661777784408499,0.49095623598540233,0.38501133516151365,0.4245734624203175,0.09095625187158794,0.0458990334803629,0.3552119085090128,1.0091474866117969,0.9439182486212249,0.6210926713909514,0.0,-0.001806498,-0.014892210471051687
0.196,-0.1678288915859347,-0.20934032833025162,0.4108745292775893,0.05530266804843918,0.03483509120035108,0.19088638520550028,0.11060533608491807,0.07715873707045055,0.709613632697952,0.49217110442602563,0.3857653196697484,0.43224180223967235,0.09217111342602559,0.04665212136220012,0.5102900490537157,1.0106052832450665,0.9450567038700994,0.6885320402729082,0.0,-0.001806498,-0.014437100533528379
0.198,-0.1665993155791796,-0.2085619490492002,0.43071154333046535,0.05604041361614596,0.0352242624753999,0.16916080519255938,0.1120808262474362,0.0783419801137906,0.6720332790099369,0.49340068164798473,0.3865436989507998,0.432594299,0.0934006902996661,0.04743139466177897,0.5343999339918808,1.0120808677784403,0.9465995965891906,0.7329599433299806,0.0,-0.001806498,-0.0472800573223461
0.2,-0.16536766405379935,-0.20779437847596383,0.4935691752527368,0.05677940220183705,0.035607117373631605,0.1539574072722513,0.11355880441918167,0.07949056712089482,0.6681148533736316,0.4946323479306931,0.3876842275092813,0.4415229788791052,0.09463233405475367,0.04819712772251309,0.45149384533793435,1.0135587517993558,0.9477571501208948,0.7297924809181342,0.0,-0.001806498,-0.08080367596430271
0.202,-0.16413030996294978,-0.20665227036862838,0.559225125899248,0.05752181670039187,0.035616606,0.14178276527384504,0.11504363436872105,0.08101740940682822,0.650159379961084,0.49586970055610974,0.38846143942091443,0.5415792480005969,0.09586969479657997,0.04934011921988779,0.46129892901026626,1.0150436683106518,0.9492839924068281,0.7040588204355974,0.0,-0.002180859210457204,-0.023524710105885166
0.204,-0.16289272103648325,-0.2058828001531106,0.42353521498300084,0.058264362688995215,0.03598827871302089,0.09474714886766615,0.11652872437799043,0.08216666798075788,0.7412192281696376,0.49710726033313396,0.3895926439807579,0.48938541914071537,0.09710726914832535,0.05010961184688938,0.3922317311062448,1.0165286937476075,0.9504332509807579,0.724690586822335,0.0,-0.002189875,-0.0029421485222523927
0.206,-0.16164078799713877,-0.2051084034544031,0.42035215862896036,0.05901553137339056,0.036000937,0.10397789397867728,0.11803106176251787,0.08370373514034454,0.5970452805487291,0.49835922278254646,0.39038059959474763,0.4442936236911216,0.098359217018598,0.05125856431839538,0.5493820305288519,1.0180310614706722,0.9519703181403445,0.6061508494007951,0.0,-0.0025653618449584387,-0.13795257363907962
0.208,-0.1603876399403626,-0.20434062362057456,0.39205910532232685,0.05976741847041985,0.03637553960686613,0.10226472630969127,0.1195348369408397,0.08486378198629156,0.6055040792660626,0.4996123570438931,0.3915220718205984,0.3806553025116224,0.09961236604389313,0.052035165379425444,0.40106122640171654,1.019534880106393,0.9531303649862916,0.6546309410035761,0.0,-0.002574205,-0.06510513350375492
0.21,-0.15912851483787932,-0.20357322210785014,0.3421492026980434,0.06052289555815326,0.03675922944607492,0.1524498469337867,0.12104579111630652,0.08639072172846575,0.5735519192103317,0.5008714809356477,0.39229915883631594,0.44335318417287045,0.10087149004888417,0.05317748331615366,0.4586793288212837,1.0210457821163066,0.9550322201745407,0.8313188676258649,0.0,-0.002574205,-0.024526746672154612
0.212,-0.15787648748635982,-0.20245656102480783,0.46203989536361517,0.06127410349741618,0.036767691,0.1478105859747263,0.12254820700156231,0.08752341553074772,0.6398838883529001,0.5021234946078597,0.39341675241963664,0.48270447527591426,0.1021235104598005,0.05393632950955043,0.5314929694523643,1.0225481984524696,0.9561751974642441,0.6685019828795714,0.0,-0.002574205,-0.05718082817645004
0.214,-0.15659684201670643,-0.201657128526777,0.5137827201192795,0.06204188927875895,0.037515776473222975,0.17501854422930865,0.12408377952792363,0.08906996133057449,0.7042761242497565,0.5034031539832936,0.3942152978573515,0.4859610597110516,0.10340314810167064,0.05471773085735151,0.5080643891499512,1.0240838363145586,0.9577218283305745,0.7035390371918209,0.0,-0.002574205,-0.07212823642502433
0.216,-0.1553206971669449,-0.20051375478162703,0.6208443008119698,0.06280758209348915,0.037535399,0.18361113924107036,0.12561516320283805,0.09060844907657388,0.7255626536141441,0.5046792985951587,0.39535957933711624,0.5307264862410703,0.1046793008330551,0.05586201233711623,0.6027787402384421,1.025615139678631,0.958884800218373,0.6402544068843627,0.0,-0.0029487887394576513,-0.0635339633426114
0.218,-0.15404022692596567,-0.19936156442004774,0.5591570327579952,0.0635758638862661,0.038285317351312645,0.2015253450424821,0.12715172778862663,0.09176945457995227,0.6967740751966587,0.5059597543154507,0.3961358993513126,0.3735809339804296,0.10595977118669528,0.05701422457995227,0.5662168624210024,1.0271517328229613,0.9600369905799523,0.6047162942978521,0.0,-0.0025826228243436755,0.002340530454892603
0.22,-0.1527545704489212,-0.19820816620341616,0.625014976644171,0.06434726030146622,0.0386778826088151,0.25916887193800764,0.128694521570509,0.09329858240539896,0.6291197518349259,0.5072454250809393,0.3972808587965838,0.4492915885586479,0.10724543443759685,0.05816762279658385,0.565345764,1.0286944690295625,0.9611903887965838,0.6727427183380315,0.0,-0.0029499346088150977,0.08905486411538462
0.222,-0.15146387615516627,-0.19705918059235442,0.6398298050381088,0.06512167517447265,0.0390608714692152,0.18638612881136118,0.13024334936503396,0.09445614941193284,0.6695852258940098,0.5085360915688237,0.39843077841193286,0.5793799612204359,0.10853612197354308,0.05931660840764559,0.6624527838432774,1.0302433841583838,0.9623393753866857,0.5068245414363464,0.0,-0.002582240530784804,0.007131580232940332
0.224,-0.15016803805197282,-0.1959082729147795,0.61621490080441,0.0658991820832042,0.0394451299443385,0.2301513811921335,0.13179836418226248,0.095606143211323,0.7099159624032181,0.5098319736943616,0.399205483140882,0.4402300592171633,0.10983196780534032,0.060467516085220496,0.5450329231309893,1.0317983254200738,0.963490282106317,0.4620167002760429,0.0,-0.002949494070441001,0.06658178940345649
0.226,-0.14886667674323362,-0.1943870773886909,0.6514284152687099,0.06667999365194682,0.04020122847849846,0.3185654479208838,0.13335998830389365,0.09675332337205987,0.5809634160757899,0.5111333197304131,0.40034457537205986,0.42526362778284627,0.11113332038307218,0.061614716372059876,0.6139074312784509,1.0333599643038938,0.9650114776113091,0.6260601677013543,0.0,-0.002957582,-0.09286055334592541
0.228,-0.14756545957004424,-0.19324475544926686,0.6347508476095014,0.06746072999066874,0.04058794397818182,0.32752474374428153,0.13492146098133748,0.09788626355073314,0.509753320161525,0.5124345659193684,0.40147751555073313,0.49965367918979475,0.11243454534872592,0.06274674093454545,0.6669604308541935,1.034921437329465,0.9661537995507331,0.5177231873960118,0.0,-0.002957582,-0.08224845237478005
0.23,-0.14624891039560048,-0.1917015601799224,0.6280600939020369,0.06825065378680142,0.04135227522793404,0.22760195859747817,0.1365013085585018,0.09905547102400582,0.5408426056122696,0.5137510722688466,0.4026457923882153,0.47152604143671195,0.11375108771010702,0.06428989782007759,0.7405577732735209,1.0365013138789536,0.9673230070240059,0.6565022398676043,0.0,-0.002957582,-0.11140470051430651
0.232,-0.14493494283596364,-0.1905580224598309,0.6205705761701902,0.06903903591869918,0.041739729513389716,0.3519467194735729,0.13807807183739837,0.10018961954016914,0.562825220688513,0.5150650826064084,0.40378083489957717,0.5485067925348838,0.11506506216403635,0.06543435289957716,0.8421261625193798,1.0380780330274988,0.9684571555401691,0.5362649946275546,0.0,-0.002957582,0.022837106109936584
0.234,-0.14360880560465117,-0.1890165365460598,0.5681646041911391,0.06983471979069766,0.0428776710663358,0.39435996859460115,0.13966943958139533,0.1013570100663358,0.6148886428736231,0.5163911766124032,0.4049482620663358,0.47716599639862,0.11639119939534884,0.06697680635746278,0.7716644394228301,1.0396694155813953,0.9696245460663359,0.6480531987844087,0.0,-0.002957582,0.11607605187204939
0.236,-0.14228058970960047,-0.18785305947401124,0.6251047306314972,0.07063164627835421,0.04328067034818975,0.2947700018942526,0.14126329255670841,0.10251120552598876,0.5731593003970605,0.5177194058269529,0.4061024565474967,0.6380662231635799,0.1177194151785331,0.06851543787417852,0.6339488574104434,1.0412632685726895,0.9707787415259888,0.6497550298141953,0.0,-0.002957582,-0.07285611429860199
0.238,-0.14094747839378485,-0.1863255142543849,0.7519128080490395,0.07143150732297474,0.0440407770266078,0.2639581091589309,0.14286301466219903,0.10366328738611144,0.6212298506873881,0.5190524890774523,0.40725360505786895,0.720845760613292,0.11905251971996204,0.06967576538611144,0.6787825903510322,1.0428629918896928,0.9723062867456151,0.5439246738340293,0.0,-0.002582118640496361,0.16354232492148912
0.24,-0.13961613575536122,-0.18479939478994784,0.7768498526804173,0.07223032252174434,0.04443000302228544,0.3153385414751067,0.14446064603210734,0.10518056408914178,0.8796567569032717,0.5203838605860788,0.40802503219155994,0.5635001945357989,0.12038386924463879,0.07119397121005215,0.6560131212759602,1.0444606366906672,0.9734580980668563,0.6879292138525367,0.0,-0.002574205,0.04823675674822191
0.242,-0.13826648887081397,-0.18363297584427407,0.7431040527816244,0.07304010850363485,0.045190314060134164,0.3472805656778869,0.14608021699094267,0.10634695913428366,0.6655574924162674,0.521733537129186,0.4095466126643508,0.6324108517658121,0.12173351612918602,0.07235945759020124,0.6060984015081456,1.0460801787256586,0.9749896516643508,0.7211108884143508,0.0,-0.002574205,0.1599905275220412
0.244,-0.13691886552997973,-0.18210890124223306,0.7542795783610284,0.07384868395422577,0.04595691747732413,0.30858742832460423,0.14769736692442484,0.10787103375776694,0.8491819674186406,0.5230811602304208,0.4103287462575884,0.6026992798812046,0.12308113935820718,0.07350889661754553,0.5304683240449947,1.0476973736432234,0.9765219467577669,0.756343501544697,0.0,-0.002574205,0.06708181832424712
0.246,-0.13556568250214593,-0.1805743106583214,0.7948191731582022,0.07466058595302813,0.04672375753242728,0.3371912257327134,0.14932117190605626,0.1094056243416786,0.7086499534176205,0.5244343287374821,0.411471144075465,0.6586336659352647,0.1244343156256557,0.07503472534167858,0.6107370231211254,1.049321221947544,0.977681890075465,0.7392589525938246,0.0,-0.002574205,-0.09470145089639963
0.248,-0.13420746603505007,-0.17903913323783396,0.6316543316956107,0.0754755191502146,0.047491801741889314,0.3743137676017414,0.15095103831640438,0.11094080176216603,0.67603064596875,0.5257925597412971,0.4129975907844704,0.6897909730593988,0.1257925397253219,0.07619507675202768,0.5917621791450381,1.0509510290767763,0.9795831637723044,0.8241774152548903,0.0,-0.002574205,-0.03277800505593988
0.25,-0.1328440554261025,-0.1778804137022291,0.6323862104565502,0.076293563840882,0.04825858721337466,0.4017300001892955,0.152587128681764,0.11247528416104423,0.8311180172837049,0.5271559565738975,0.4141572420543569,0.7650649183872928,0.12715593581525628,0.0773461770543569,0.6778176282531887,1.052587105647199,0.9811261971610442,0.7133373030390988,0.0,-0.002574205,0.004524251696984151
0.252,-0.131475960690161,-0.17635219035959887,0.6937496656454155,0.07711442645485987,0.04902743891117479,0.37274760478295127,0.15422885387775792,0.11401207464040115,0.7396373430845271,0.5285240505906976,0.4153091405730659,0.5814834333746418,0.12852404507012524,0.07887442164040115,0.6738137732378223,1.0542288889189029,0.982287574775788,0.8063934133194842,0.0,-0.002574205,0.11740413968624643
0.254,-0.13010225059854624,-0.17481732439017408,0.6038760134514668,0.07793864451596759,0.050169928382542334,0.4658339667603148,0.15587728803193518,0.1155469406098259,0.6329986604438349,0.5298977168912059,0.4164605088156451,0.5805419603007393,0.12989774064632983,0.08003283938254233,0.6931165544753161,1.0558772652563155,0.9841899904040067,0.734290793851419,0.0,-0.002574205,-0.05508466531886479
0.256,-0.12872455679868813,-0.17328446187687546,0.7064800316539652,0.07876526533357185,0.05094467978090021,0.5259334346101453,0.15753052968312461,0.11707980312312456,0.7604014500569183,0.5312754397059034,0.4176103929735651,0.543279753175756,0.13127544894561716,0.08118270495201238,0.623349049927959,1.0575305804434108,0.9853556019520123,0.8235142761222911,0.0,-0.002574205,-0.060239330110383425
0.258,-0.12734096404146808,-0.17212393488745675,0.6250833009252894,0.07959542171961391,0.052464189317102276,0.5528606380145602,0.1591908434555529,0.11861583831710229,0.7106476867765844,0.5326590024482841,0.4187617246547321,0.48267532374985084,0.13265902620340803,0.08271047731710228,0.7413715332289057,1.0591908789658009,0.9872588815421889,0.7322516517368421,0.0,-0.002574205,-0.022908306341090826
0.26,-0.12595352433527385,-0.17097349334274484,0.5620873196819156,0.08042788227206843,0.053622500657255184,0.6125487899324518,0.1608557655282167,0.12015037646533239,0.8386029825536098,0.5340464713144826,0.4199121466572552,0.6487209482912795,0.13404648055328502,0.08424408158184417,0.7513459278570408,1.0608557705889272,0.9888003555818442,0.8013973744910651,0.0,-0.002574205,-0.11025374956969264
0.262,-0.12456519795078834,-0.16984905979044845,0.5724447894093185,0.08126088263712375,0.05438021316866628,0.518453802377286,0.1625217652742475,0.12165054588806057,0.8040158384410018,0.5354347762391304,0.4210374908471753,0.5880993883285964,0.13543480004921166,0.08537751080372744,0.6580935114647641,1.062521713401099,0.9903005048880605,0.7795756011379149,0.0,-0.002574205,0.029427423104018635
0.264,-0.12316481223901624,-0.16867821203972785,0.644299020745839,0.08210111467406876,0.055534404934029884,0.5513867860191958,0.16420222934813752,0.12321140925707691,0.6483840643825781,0.5368351769794651,0.4222083809340299,0.6267893238063419,0.13683518576098377,0.08692171725707691,0.6048142396956627,1.0642022655520536,0.9918613682570769,0.7077890491534442,0.0,-0.002574205,0.03882982698870125
0.266,-0.12176032702892563,-0.16752468348298508,0.5881434892488359,0.08294380690613931,0.056688864507104475,0.5268385144255523,0.16588761381227862,0.12437406752692537,0.758598479466985,0.5382396768435654,0.4237360396926567,0.6353559925474627,0.13823967108264462,0.08808437552692537,0.6466796526321195,1.0658876638282173,0.9933990876926567,0.7660416811503283,0.0,-0.002574205,0.26972035531761196
0.268,-0.120366501931229,-0.16640467683203894,0.5374802120117075,0.08378009723235719,0.05780798893508751,0.5749425482570998,0.16756019446471437,0.12585783047965687,0.8037030596719601,0.5396334939733557,0.42486438888396894,0.6558103023283877,0.139633503068771,0.08956813847965689,0.631820380414049,1.0675602453692992,0.9948921204796568,0.7501539961836096,0.0,-0.002574205,0.04810446907163554
0.27,-0.11894488846066882,-0.16525395239273769,0.5666974027376971,0.08463306394716172,0.058959570291925466,0.5565343707252747,0.16926612789432344,0.1273930191610129,0.858711560786431,0.5410550927487802,0.42601596934257047,0.6250294754223602,0.1410551163560633,0.09110332716101291,0.714981215436216,1.069266164090682,0.996427309161013,0.694750598376493,0.0,-0.002574205,0.017026344886287622
0.272,-0.11753031483231598,-0.1640865348704331,0.6345653815723445,0.08548180990520647,0.06049645275248004,0.6835098284777401,0.17096361981041294,0.12894931775248003,0.7074337103081296,0.5424696823400359,0.42718343512956686,0.5953931733435761,0.1424696763400359,0.0922902091295669,0.6768242073128479,1.070963670465709,0.99798360775248,0.7318375133474474,0.0,-0.002574205,-0.051612770751996134
0.274,-0.1161032081060353,-0.16291900540931076,0.5191851516220073,0.08633807440100191,0.06167794259068923,0.6351717345347038,0.17267614880200383,0.13050570115767837,0.7427929113659009,0.5438968035400763,0.4283500326788392,0.6450730694964933,0.14389679777087308,0.09383263215767836,0.7513106733842805,1.0726761688788167,0.9991650975906893,0.7232024714036276,0.0,-0.002574205,-0.04521601747509069
0.276,-0.11467618697789923,-0.16214305888979008,0.5180111221910783,0.08719429109862167,0.06282912666531489,0.5876367739126908,0.17438858218132128,0.13166630241102098,0.6397765326524332,0.545323802372386,0.42950212843225194,0.6760908228640268,0.14532381089472432,0.09536847096612595,0.6216024379899809,1.074388544614306,1.00069151922042,0.734323341860687,0.0,-0.0021980346779580154,0.05504993992962786
0.278,-0.11324977793431266,-0.1610210758662845,0.37733054091881146,0.08805012953397826,0.06395924913371549,0.6021097991332475,0.1761002580679565,0.1327964441731399,0.6474886530940571,0.5467502329762332,0.43100053371525504,0.8159823293902667,0.1467502121679207,0.09687501571525503,0.7257528968148105,1.0761003090679564,1.0018297811337153,0.5469534687570192,0.0,-0.002189875,0.0674805127051942
0.28,-0.11181169588475305,-0.16022843238603074,0.5336518639418957,0.08891298604294917,0.06512645366965258,0.5998006178883912,0.17782597110045334,0.13433727997663722,0.6252939512905218,0.548188307896922,0.43218285266965256,0.5510431240478151,0.14818830211524697,0.09805733466965258,0.6275315686178429,1.0778260218821283,1.0033706169766372,0.7569669385208813,0.0,-0.002189875,0.05749198083997095
0.282,-0.1103703678,-0.1590904042036355,0.5230526141638351,0.08977778104615385,0.0662742517963645,0.5664512873773316,0.1795555620923077,0.13549389774349532,0.6840136803446596,0.5496296211999999,0.43370318738695496,0.6225683083949151,0.1496296302,0.09957766938695498,0.6026140467598907,1.0795555978615385,1.004900697386955,0.6511423468549364,0.0,-0.002189875,0.07353052191695378
0.284,-0.10892513879055343,-0.15793326444521696,0.5733069673291776,0.09064491372566794,0.06705590634140493,0.44347936231790935,0.18128982746708014,0.13665101055478304,0.6726208365756414,0.5510748500992366,0.434871167554783,0.6874706537477824,0.15107485909923662,0.10111927068280988,0.7614818175660513,1.0812898486875,1.0064432307254856,0.740326653109566,0.0,-0.002189875,0.048662221323903146
0.286,-0.10747504299463648,-0.15678229909617447,0.543198426031343,0.09151497128486294,0.06857253922393039,0.6285139979259922,0.1830299435533969,0.13780197492694554,0.627593766041473,0.5525249393646007,0.4363957152572995,0.9095583812407342,0.15252494811966627,0.1026535512239304,0.8591475519059706,1.083029978079857,1.0076030199038255,0.8522141854528662,0.0,-0.0018153616798951256,0.14197674772625432
0.288,-0.10602146865387366,-0.15600505297766096,0.5290134040026281,0.0923871208011919,0.06935864902233903,0.5550709444257556,0.1847742416023838,0.13895547147568987,0.6755319690354796,0.5539785355730631,0.43755805249671487,0.6832373390512484,0.15397852932991657,0.10456747844021025,0.8972249575124835,1.0847742471160906,1.0091318329868595,0.8500305629829172,0.0,-0.001806498,0.020210456177398153
0.29,-0.10456358843783525,-0.154861865108382,0.5347008323216884,0.09326184851174157,0.07050183689161797,0.5208579307237391,0.18652369702348315,0.14010580677655896,0.643715353188983,0.5554364292107522,0.43908469849075954,0.8187044237474663,0.15543640868995112,0.10611026451162514,0.9667208577828783,1.086523673023483,1.0106665394907595,0.6276109421392632,0.0,-0.001806498,0.09523771326541075
0.292,-0.10310129080844575,-0.1540876245633115,0.5378141467161406,0.09413922559038124,0.07127701086801667,0.4521741680745682,0.188278451165044,0.14200722697593807,0.7839541112714711,0.5568987048457478,0.44061809430470517,0.7336113997444907,0.15689871406580647,0.10801877250148897,0.8756169159234068,1.0882784281081526,1.012199935304705,0.8527960001915426,0.0,-0.001806498,-0.04046087411494938
0.294,-0.10165785425055718,-0.1529841116865723,0.5883115501136807,0.09500529224797653,0.07201761662766079,0.49251978835484983,0.19001058349630498,0.14349670519963179,0.8222196192400184,0.5583421197571847,0.44173815931342764,0.7806610820566102,0.15834214275225805,0.10950913012725808,0.8634907971549879,1.0900106194751906,1.013682027127258,0.7350957334145667,0.0,-0.0014444702418593947,0.09916185066448048
0.296,-0.10019345221141297,-0.15184201642021086,0.5469871320709632,0.09588393227927393,0.07277927586032461,0.4421721564131027,0.1917678645534464,0.14501913029925365,0.7962832206073925,0.5598065297477756,0.4432392872992536,0.6077813835969672,0.1598065537426741,0.11139064101871816,0.9143430423860918,1.0917678408595326,1.0152045052992538,0.6792683641525886,0.0,-0.00142312,0.030409206607984837
0.298,-0.09870879040438722,-0.15068569216011035,0.6259030324935236,0.09677472495660466,0.07391125583988967,0.47558253501235304,0.19354944891511683,0.1469237488078676,0.695509977687335,0.5612911985813066,0.44441995583988964,0.8042496910486927,0.1612912075956128,0.1133187062414248,0.8876518494215639,1.0935493959427753,1.0171082262414248,0.8840728172929959,0.0,-0.00142312,0.012242900029503477
0.3,-0.09722872815643258,-0.14953426353612304,0.5748903684144014,0.09766276151090975,0.07470147458893657,0.40385682555436336,0.19532552401991177,0.14848109833881734,0.7532352613210538,0.5627712458435674,0.44557138446387695,0.630221306033381,0.1627712698435674,0.11487600033881737,0.8829126607722938,1.0953255000342195,1.0186664191778732,0.9055508817409395,0.0,-0.00142312,-0.04462431811373391
